name,category,location,lat,lon
A2B Restaurant,Restaurant,Velachery,12.9760,80.2210
Starbucks,Cafe,Velachery,12.9770,80.2220
Apollo Pharmacy,Medical Shop,Velachery,12.9780,80.2230
Saravana Bhavan,Restaurant,T Nagar,13.0425,80.2350
Reliance Smart,Super Market,T Nagar,13.0415,80.2360
Apollo Pharmacy,Medical Shop,Tambaram,12.9255,80.1010
Sri Krishna Bakery,Bakery,Tambaram,12.9260,80.1020